{
  "type": "FeatureCollection",
  "features": [
    {
      "type": "Feature",
      "properties": {
        "stop_id": "1",
        "stop_code": null,
        "stop_name": "Grand Central"
      },
      "geometry": {
        "type": "Point",
        "coordinates": [
          -73.977056,
          40.752998
        ]
      }
    },
    {
      "type": "Feature",
      "properties": {
        "stop_id": "4",
        "stop_code": null,
        "stop_name": "Harlem-125th St."
      },
      "geometry": {
        "type": "Point",
        "coordinates": [
          -73.939149,
          40.805157
        ]
      }
    },
    {
      "type": "Feature",
      "properties": {
        "stop_id": "622",
        "stop_code": null,
        "stop_name": "Yankees-E153 St."
      },
      "geometry": {
        "type": "Point",
        "coordinates": [
          -73.9299,
          40.8253
        ]
      }
    },
    {
      "type": "Feature",
      "properties": {
        "stop_id": "9",
        "stop_code": null,
        "stop_name": "Morris Heights"
      },
      "geometry": {
        "type": "Point",
        "coordinates": [
          -73.919583,
          40.854252
        ]
      }
    },
    {
      "type": "Feature",
      "properties": {
        "stop_id": "10",
        "stop_code": null,
        "stop_name": "University Heights"
      },
      "geometry": {
        "type": "Point",
        "coordinates": [
          -73.91312,
          40.862248
        ]
      }
    },
    {
      "type": "Feature",
      "properties": {
        "stop_id": "11",
        "stop_code": null,
        "stop_name": "Marble Hill"
      },
      "geometry": {
        "type": "Point",
        "coordinates": [
          -73.910941,
          40.874333
        ]
      }
    },
    {
      "type": "Feature",
      "properties": {
        "stop_id": "14",
        "stop_code": null,
        "stop_name": "Spuyten Duyvil"
      },
      "geometry": {
        "type": "Point",
        "coordinates": [
          -73.921455,
          40.878245
        ]
      }
    },
    {
      "type": "Feature",
      "properties": {
        "stop_id": "16",
        "stop_code": null,
        "stop_name": "Riverdale"
      },
      "geometry": {
        "type": "Point",
        "coordinates": [
          -73.914126,
          40.903981
        ]
      }
    },
    {
      "type": "Feature",
      "properties": {
        "stop_id": "17",
        "stop_code": null,
        "stop_name": "Ludlow"
      },
      "geometry": {
        "type": "Point",
        "coordinates": [
          -73.904612,
          40.924972
        ]
      }
    },
    {
      "type": "Feature",
      "properties": {
        "stop_id": "18",
        "stop_code": null,
        "stop_name": "Yonkers"
      },
      "geometry": {
        "type": "Point",
        "coordinates": [
          -73.902668,
          40.935795
        ]
      }
    },
    {
      "type": "Feature",
      "properties": {
        "stop_id": "19",
        "stop_code": null,
        "stop_name": "Glenwood"
      },
      "geometry": {
        "type": "Point",
        "coordinates": [
          -73.899062,
          40.950496
        ]
      }
    },
    {
      "type": "Feature",
      "properties": {
        "stop_id": "20",
        "stop_code": null,
        "stop_name": "Greystone"
      },
      "geometry": {
        "type": "Point",
        "coordinates": [
          -73.889989,
          40.97104
        ]
      }
    },
    {
      "type": "Feature",
      "properties": {
        "stop_id": "22",
        "stop_code": null,
        "stop_name": "Hastings-on-Hudson"
      },
      "geometry": {
        "type": "Point",
        "coordinates": [
          -73.884512,
          40.994109
        ]
      }
    },
    {
      "type": "Feature",
      "properties": {
        "stop_id": "23",
        "stop_code": null,
        "stop_name": "Dobbs Ferry"
      },
      "geometry": {
        "type": "Point",
        "coordinates": [
          -73.87949,
          41.012459
        ]
      }
    },
    {
      "type": "Feature",
      "properties": {
        "stop_id": "24",
        "stop_code": null,
        "stop_name": "Ardsley-on-Hudson"
      },
      "geometry": {
        "type": "Point",
        "coordinates": [
          -73.876543,
          41.026198
        ]
      }
    },
    {
      "type": "Feature",
      "properties": {
        "stop_id": "25",
        "stop_code": null,
        "stop_name": "Irvington"
      },
      "geometry": {
        "type": "Point",
        "coordinates": [
          -73.873083,
          41.039993
        ]
      }
    },
    {
      "type": "Feature",
      "properties": {
        "stop_id": "27",
        "stop_code": null,
        "stop_name": "Tarrytown"
      },
      "geometry": {
        "type": "Point",
        "coordinates": [
          -73.864563,
          41.076473
        ]
      }
    },
    {
      "type": "Feature",
      "properties": {
        "stop_id": "29",
        "stop_code": null,
        "stop_name": "Philipse Manor"
      },
      "geometry": {
        "type": "Point",
        "coordinates": [
          -73.869755,
          41.09492
        ]
      }
    },
    {
      "type": "Feature",
      "properties": {
        "stop_id": "30",
        "stop_code": null,
        "stop_name": "Scarborough"
      },
      "geometry": {
        "type": "Point",
        "coordinates": [
          -73.866163,
          41.135763
        ]
      }
    },
    {
      "type": "Feature",
      "properties": {
        "stop_id": "31",
        "stop_code": null,
        "stop_name": "Ossining"
      },
      "geometry": {
        "type": "Point",
        "coordinates": [
          -73.869281,
          41.157663
        ]
      }
    },
    {
      "type": "Feature",
      "properties": {
        "stop_id": "40001",
        "stop_code": null,
        "stop_name": "Haverstraw"
      },
      "geometry": {
        "type": "Point",
        "coordinates": [
          -73.959017,
          41.192009
        ]
      }
    },
    {
      "type": "Feature",
      "properties": {
        "stop_id": "33",
        "stop_code": null,
        "stop_name": "Croton-Harmon"
      },
      "geometry": {
        "type": "Point",
        "coordinates": [
          -73.882394,
          41.189903
        ]
      }
    },
    {
      "type": "Feature",
      "properties": {
        "stop_id": "37",
        "stop_code": null,
        "stop_name": "Cortlandt"
      },
      "geometry": {
        "type": "Point",
        "coordinates": [
          -73.921884,
          41.246259
        ]
      }
    },
    {
      "type": "Feature",
      "properties": {
        "stop_id": "39",
        "stop_code": null,
        "stop_name": "Peekskill"
      },
      "geometry": {
        "type": "Point",
        "coordinates": [
          -73.93042,
          41.285962
        ]
      }
    },
    {
      "type": "Feature",
      "properties": {
        "stop_id": "40",
        "stop_code": null,
        "stop_name": "Manitou"
      },
      "geometry": {
        "type": "Point",
        "coordinates": [
          -73.970426,
          41.332601
        ]
      }
    },
    {
      "type": "Feature",
      "properties": {
        "stop_id": "42",
        "stop_code": null,
        "stop_name": "Garrison"
      },
      "geometry": {
        "type": "Point",
        "coordinates": [
          -73.947202,
          41.38178
        ]
      }
    },
    {
      "type": "Feature",
      "properties": {
        "stop_id": "43",
        "stop_code": null,
        "stop_name": "Cold Spring"
      },
      "geometry": {
        "type": "Point",
        "coordinates": [
          -73.95809,
          41.415283
        ]
      }
    },
    {
      "type": "Feature",
      "properties": {
        "stop_id": "44",
        "stop_code": null,
        "stop_name": "Breakneck Ridge"
      },
      "geometry": {
        "type": "Point",
        "coordinates": [
          -73.982449,
          41.450181
        ]
      }
    },
    {
      "type": "Feature",
      "properties": {
        "stop_id": "46",
        "stop_code": null,
        "stop_name": "Beacon"
      },
      "geometry": {
        "type": "Point",
        "coordinates": [
          -73.984528,
          41.504007
        ]
      }
    },
    {
      "type": "Feature",
      "properties": {
        "stop_id": "40002",
        "stop_code": null,
        "stop_name": "Newburg"
      },
      "geometry": {
        "type": "Point",
        "coordinates": [
          -74.005419,
          41.500896
        ]
      }
    },
    {
      "type": "Feature",
      "properties": {
        "stop_id": "49",
        "stop_code": null,
        "stop_name": "New Hamburg"
      },
      "geometry": {
        "type": "Point",
        "coordinates": [
          -73.947226,
          41.587448
        ]
      }
    },
    {
      "type": "Feature",
      "properties": {
        "stop_id": "51",
        "stop_code": null,
        "stop_name": "Poughkeepsie"
      },
      "geometry": {
        "type": "Point",
        "coordinates": [
          -73.937946,
          41.705839
        ]
      }
    },
    {
      "type": "Feature",
      "properties": {
        "stop_id": "54",
        "stop_code": null,
        "stop_name": "Melrose"
      },
      "geometry": {
        "type": "Point",
        "coordinates": [
          -73.915231,
          40.825761
        ]
      }
    },
    {
      "type": "Feature",
      "properties": {
        "stop_id": "55",
        "stop_code": null,
        "stop_name": "Tremont"
      },
      "geometry": {
        "type": "Point",
        "coordinates": [
          -73.89955,
          40.847301
        ]
      }
    },
    {
      "type": "Feature",
      "properties": {
        "stop_id": "56",
        "stop_code": null,
        "stop_name": "Fordham"
      },
      "geometry": {
        "type": "Point",
        "coordinates": [
          -73.89058,
          40.8615
        ]
      }
    },
    {
      "type": "Feature",
      "properties": {
        "stop_id": "57",
        "stop_code": null,
        "stop_name": "Botanical Garden"
      },
      "geometry": {
        "type": "Point",
        "coordinates": [
          -73.883109,
          40.866555
        ]
      }
    },
    {
      "type": "Feature",
      "properties": {
        "stop_id": "58",
        "stop_code": null,
        "stop_name": "Williams Bridge"
      },
      "geometry": {
        "type": "Point",
        "coordinates": [
          -73.871064,
          40.878569
        ]
      }
    },
    {
      "type": "Feature",
      "properties": {
        "stop_id": "59",
        "stop_code": null,
        "stop_name": "Woodlawn"
      },
      "geometry": {
        "type": "Point",
        "coordinates": [
          -73.862916,
          40.895361
        ]
      }
    },
    {
      "type": "Feature",
      "properties": {
        "stop_id": "61",
        "stop_code": null,
        "stop_name": "Wakefield"
      },
      "geometry": {
        "type": "Point",
        "coordinates": [
          -73.854665,
          40.905424
        ]
      }
    },
    {
      "type": "Feature",
      "properties": {
        "stop_id": "62",
        "stop_code": null,
        "stop_name": "Mt Vernon West"
      },
      "geometry": {
        "type": "Point",
        "coordinates": [
          -73.851129,
          40.912142
        ]
      }
    },
    {
      "type": "Feature",
      "properties": {
        "stop_id": "64",
        "stop_code": null,
        "stop_name": "Fleetwood"
      },
      "geometry": {
        "type": "Point",
        "coordinates": [
          -73.83948,
          40.92699
        ]
      }
    },
    {
      "type": "Feature",
      "properties": {
        "stop_id": "65",
        "stop_code": null,
        "stop_name": "Bronxville"
      },
      "geometry": {
        "type": "Point",
        "coordinates": [
          -73.835208,
          40.93978
        ]
      }
    },
    {
      "type": "Feature",
      "properties": {
        "stop_id": "66",
        "stop_code": null,
        "stop_name": "Tuckahoe"
      },
      "geometry": {
        "type": "Point",
        "coordinates": [
          -73.830166,
          40.949393
        ]
      }
    },
    {
      "type": "Feature",
      "properties": {
        "stop_id": "68",
        "stop_code": null,
        "stop_name": "Crestwood"
      },
      "geometry": {
        "type": "Point",
        "coordinates": [
          -73.820564,
          40.958997
        ]
      }
    },
    {
      "type": "Feature",
      "properties": {
        "stop_id": "71",
        "stop_code": null,
        "stop_name": "Scarsdale"
      },
      "geometry": {
        "type": "Point",
        "coordinates": [
          -73.808634,
          40.989168
        ]
      }
    },
    {
      "type": "Feature",
      "properties": {
        "stop_id": "72",
        "stop_code": null,
        "stop_name": "Hartsdale"
      },
      "geometry": {
        "type": "Point",
        "coordinates": [
          -73.796407,
          41.010333
        ]
      }
    },
    {
      "type": "Feature",
      "properties": {
        "stop_id": "74",
        "stop_code": null,
        "stop_name": "White Plains"
      },
      "geometry": {
        "type": "Point",
        "coordinates": [
          -73.775208,
          41.032589
        ]
      }
    },
    {
      "type": "Feature",
      "properties": {
        "stop_id": "76",
        "stop_code": null,
        "stop_name": "North White Plains"
      },
      "geometry": {
        "type": "Point",
        "coordinates": [
          -73.773142,
          41.049806
        ]
      }
    },
    {
      "type": "Feature",
      "properties": {
        "stop_id": "78",
        "stop_code": null,
        "stop_name": "Valhalla"
      },
      "geometry": {
        "type": "Point",
        "coordinates": [
          -73.772599,
          41.072819
        ]
      }
    },
    {
      "type": "Feature",
      "properties": {
        "stop_id": "79",
        "stop_code": null,
        "stop_name": "Mount Pleasant"
      },
      "geometry": {
        "type": "Point",
        "coordinates": [
          -73.793822,
          41.095877
        ]
      }
    },
    {
      "type": "Feature",
      "properties": {
        "stop_id": "80",
        "stop_code": null,
        "stop_name": "Hawthorne"
      },
      "geometry": {
        "type": "Point",
        "coordinates": [
          -73.79625,
          41.108581
        ]
      }
    },
    {
      "type": "Feature",
      "properties": {
        "stop_id": "81",
        "stop_code": null,
        "stop_name": "Pleasantville"
      },
      "geometry": {
        "type": "Point",
        "coordinates": [
          -73.792661,
          41.135222
        ]
      }
    },
    {
      "type": "Feature",
      "properties": {
        "stop_id": "83",
        "stop_code": null,
        "stop_name": "Chappaqua"
      },
      "geometry": {
        "type": "Point",
        "coordinates": [
          -73.774885,
          41.158015
        ]
      }
    },
    {
      "type": "Feature",
      "properties": {
        "stop_id": "84",
        "stop_code": null,
        "stop_name": "Mount Kisco"
      },
      "geometry": {
        "type": "Point",
        "coordinates": [
          -73.729778,
          41.208242
        ]
      }
    },
    {
      "type": "Feature",
      "properties": {
        "stop_id": "85",
        "stop_code": null,
        "stop_name": "Bedford Hills"
      },
      "geometry": {
        "type": "Point",
        "coordinates": [
          -73.699936,
          41.237316
        ]
      }
    },
    {
      "type": "Feature",
      "properties": {
        "stop_id": "86",
        "stop_code": null,
        "stop_name": "Katonah"
      },
      "geometry": {
        "type": "Point",
        "coordinates": [
          -73.684155,
          41.259552
        ]
      }
    },
    {
      "type": "Feature",
      "properties": {
        "stop_id": "88",
        "stop_code": null,
        "stop_name": "Goldens Bridge"
      },
      "geometry": {
        "type": "Point",
        "coordinates": [
          -73.677655,
          41.294338
        ]
      }
    },
    {
      "type": "Feature",
      "properties": {
        "stop_id": "89",
        "stop_code": null,
        "stop_name": "Purdy's"
      },
      "geometry": {
        "type": "Point",
        "coordinates": [
          -73.659061,
          41.325775
        ]
      }
    },
    {
      "type": "Feature",
      "properties": {
        "stop_id": "90",
        "stop_code": null,
        "stop_name": "Croton Falls"
      },
      "geometry": {
        "type": "Point",
        "coordinates": [
          -73.662269,
          41.347722
        ]
      }
    },
    {
      "type": "Feature",
      "properties": {
        "stop_id": "91",
        "stop_code": null,
        "stop_name": "Brewster"
      },
      "geometry": {
        "type": "Point",
        "coordinates": [
          -73.619802,
          41.39447
        ]
      }
    },
    {
      "type": "Feature",
      "properties": {
        "stop_id": "94",
        "stop_code": null,
        "stop_name": "Southeast"
      },
      "geometry": {
        "type": "Point",
        "coordinates": [
          -73.623787,
          41.413203
        ]
      }
    },
    {
      "type": "Feature",
      "properties": {
        "stop_id": "97",
        "stop_code": null,
        "stop_name": "Patterson"
      },
      "geometry": {
        "type": "Point",
        "coordinates": [
          -73.604584,
          41.511827
        ]
      }
    },
    {
      "type": "Feature",
      "properties": {
        "stop_id": "98",
        "stop_code": null,
        "stop_name": "Pawling"
      },
      "geometry": {
        "type": "Point",
        "coordinates": [
          -73.600524,
          41.564205
        ]
      }
    },
    {
      "type": "Feature",
      "properties": {
        "stop_id": "99",
        "stop_code": null,
        "stop_name": "Appalachian Trail"
      },
      "geometry": {
        "type": "Point",
        "coordinates": [
          -73.57871,
          41.61081
        ]
      }
    },
    {
      "type": "Feature",
      "properties": {
        "stop_id": "100",
        "stop_code": null,
        "stop_name": "HM Valley-Wingdale"
      },
      "geometry": {
        "type": "Point",
        "coordinates": [
          -73.57145,
          41.637525
        ]
      }
    },
    {
      "type": "Feature",
      "properties": {
        "stop_id": "101",
        "stop_code": null,
        "stop_name": "Dover Plains"
      },
      "geometry": {
        "type": "Point",
        "coordinates": [
          -73.576502,
          41.740401
        ]
      }
    },
    {
      "type": "Feature",
      "properties": {
        "stop_id": "176",
        "stop_code": null,
        "stop_name": "Tenmile River"
      },
      "geometry": {
        "type": "Point",
        "coordinates": [
          -73.558204,
          41.779938
        ]
      }
    },
    {
      "type": "Feature",
      "properties": {
        "stop_id": "177",
        "stop_code": null,
        "stop_name": "Wassaic"
      },
      "geometry": {
        "type": "Point",
        "coordinates": [
          -73.563583,
          41.821579
        ]
      }
    },
    {
      "type": "Feature",
      "properties": {
        "stop_id": "105",
        "stop_code": null,
        "stop_name": "Mt Vernon East "
      },
      "geometry": {
        "type": "Point",
        "coordinates": [
          -73.832185,
          40.912161
        ]
      }
    },
    {
      "type": "Feature",
      "properties": {
        "stop_id": "106",
        "stop_code": null,
        "stop_name": "Pelham"
      },
      "geometry": {
        "type": "Point",
        "coordinates": [
          -73.810242,
          40.910321
        ]
      }
    },
    {
      "type": "Feature",
      "properties": {
        "stop_id": "108",
        "stop_code": null,
        "stop_name": "New Rochelle"
      },
      "geometry": {
        "type": "Point",
        "coordinates": [
          -73.783807,
          40.911605
        ]
      }
    },
    {
      "type": "Feature",
      "properties": {
        "stop_id": "110",
        "stop_code": null,
        "stop_name": "Larchmont"
      },
      "geometry": {
        "type": "Point",
        "coordinates": [
          -73.759792,
          40.933394
        ]
      }
    },
    {
      "type": "Feature",
      "properties": {
        "stop_id": "111",
        "stop_code": null,
        "stop_name": "Mamaroneck"
      },
      "geometry": {
        "type": "Point",
        "coordinates": [
          -73.736125,
          40.954061
        ]
      }
    },
    {
      "type": "Feature",
      "properties": {
        "stop_id": "112",
        "stop_code": null,
        "stop_name": "Harrison"
      },
      "geometry": {
        "type": "Point",
        "coordinates": [
          -73.712964,
          40.969432
        ]
      }
    },
    {
      "type": "Feature",
      "properties": {
        "stop_id": "114",
        "stop_code": null,
        "stop_name": "Rye"
      },
      "geometry": {
        "type": "Point",
        "coordinates": [
          -73.680461,
          40.986027
        ]
      }
    },
    {
      "type": "Feature",
      "properties": {
        "stop_id": "115",
        "stop_code": null,
        "stop_name": "Port Chester"
      },
      "geometry": {
        "type": "Point",
        "coordinates": [
          -73.6647,
          41.000732
        ]
      }
    },
    {
      "type": "Feature",
      "properties": {
        "stop_id": "116",
        "stop_code": null,
        "stop_name": "Greenwich"
      },
      "geometry": {
        "type": "Point",
        "coordinates": [
          -73.624621,
          41.021277
        ]
      }
    },
    {
      "type": "Feature",
      "properties": {
        "stop_id": "118",
        "stop_code": null,
        "stop_name": "Cos Cob"
      },
      "geometry": {
        "type": "Point",
        "coordinates": [
          -73.598306,
          41.030171
        ]
      }
    },
    {
      "type": "Feature",
      "properties": {
        "stop_id": "120",
        "stop_code": null,
        "stop_name": "Riverside"
      },
      "geometry": {
        "type": "Point",
        "coordinates": [
          -73.588173,
          41.031682
        ]
      }
    },
    {
      "type": "Feature",
      "properties": {
        "stop_id": "121",
        "stop_code": null,
        "stop_name": "Old Greenwich"
      },
      "geometry": {
        "type": "Point",
        "coordinates": [
          -73.565859,
          41.033817
        ]
      }
    },
    {
      "type": "Feature",
      "properties": {
        "stop_id": "124",
        "stop_code": null,
        "stop_name": "Stamford"
      },
      "geometry": {
        "type": "Point",
        "coordinates": [
          -73.542846,
          41.046611
        ]
      }
    },
    {
      "type": "Feature",
      "properties": {
        "stop_id": "153",
        "stop_code": null,
        "stop_name": "Glenbrook"
      },
      "geometry": {
        "type": "Point",
        "coordinates": [
          -73.520021,
          41.070547
        ]
      }
    },
    {
      "type": "Feature",
      "properties": {
        "stop_id": "154",
        "stop_code": null,
        "stop_name": "Springdale"
      },
      "geometry": {
        "type": "Point",
        "coordinates": [
          -73.517828,
          41.08876
        ]
      }
    },
    {
      "type": "Feature",
      "properties": {
        "stop_id": "155",
        "stop_code": null,
        "stop_name": "Talmadge Hill"
      },
      "geometry": {
        "type": "Point",
        "coordinates": [
          -73.498149,
          41.116012
        ]
      }
    },
    {
      "type": "Feature",
      "properties": {
        "stop_id": "157",
        "stop_code": null,
        "stop_name": "New Canaan"
      },
      "geometry": {
        "type": "Point",
        "coordinates": [
          -73.495626,
          41.146305
        ]
      }
    },
    {
      "type": "Feature",
      "properties": {
        "stop_id": "127",
        "stop_code": null,
        "stop_name": "Noroton Heights"
      },
      "geometry": {
        "type": "Point",
        "coordinates": [
          -73.49788,
          41.069041
        ]
      }
    },
    {
      "type": "Feature",
      "properties": {
        "stop_id": "128",
        "stop_code": null,
        "stop_name": "Darien"
      },
      "geometry": {
        "type": "Point",
        "coordinates": [
          -73.472966,
          41.076913
        ]
      }
    },
    {
      "type": "Feature",
      "properties": {
        "stop_id": "129",
        "stop_code": null,
        "stop_name": "Rowayton"
      },
      "geometry": {
        "type": "Point",
        "coordinates": [
          -73.445527,
          41.077456
        ]
      }
    },
    {
      "type": "Feature",
      "properties": {
        "stop_id": "131",
        "stop_code": null,
        "stop_name": "South Norwalk"
      },
      "geometry": {
        "type": "Point",
        "coordinates": [
          -73.421132,
          41.09673
        ]
      }
    },
    {
      "type": "Feature",
      "properties": {
        "stop_id": "158",
        "stop_code": null,
        "stop_name": "Merritt 7"
      },
      "geometry": {
        "type": "Point",
        "coordinates": [
          -73.427917,
          41.143382
        ]
      }
    },
    {
      "type": "Feature",
      "properties": {
        "stop_id": "160",
        "stop_code": null,
        "stop_name": "Wilton"
      },
      "geometry": {
        "type": "Point",
        "coordinates": [
          -73.432434,
          41.196202
        ]
      }
    },
    {
      "type": "Feature",
      "properties": {
        "stop_id": "161",
        "stop_code": null,
        "stop_name": "Cannondale"
      },
      "geometry": {
        "type": "Point",
        "coordinates": [
          -73.426703,
          41.21662
        ]
      }
    },
    {
      "type": "Feature",
      "properties": {
        "stop_id": "162",
        "stop_code": null,
        "stop_name": "Branchville"
      },
      "geometry": {
        "type": "Point",
        "coordinates": [
          -73.441421,
          41.26763
        ]
      }
    },
    {
      "type": "Feature",
      "properties": {
        "stop_id": "163",
        "stop_code": null,
        "stop_name": "Redding"
      },
      "geometry": {
        "type": "Point",
        "coordinates": [
          -73.4338,
          41.325684
        ]
      }
    },
    {
      "type": "Feature",
      "properties": {
        "stop_id": "164",
        "stop_code": null,
        "stop_name": "Bethel"
      },
      "geometry": {
        "type": "Point",
        "coordinates": [
          -73.418171,
          41.376225
        ]
      }
    },
    {
      "type": "Feature",
      "properties": {
        "stop_id": "165",
        "stop_code": null,
        "stop_name": "Danbury"
      },
      "geometry": {
        "type": "Point",
        "coordinates": [
          -73.450163,
          41.396363
        ]
      }
    },
    {
      "type": "Feature",
      "properties": {
        "stop_id": "133",
        "stop_code": null,
        "stop_name": "East Norwalk"
      },
      "geometry": {
        "type": "Point",
        "coordinates": [
          -73.404588,
          41.103996
        ]
      }
    },
    {
      "type": "Feature",
      "properties": {
        "stop_id": "134",
        "stop_code": null,
        "stop_name": "Westport"
      },
      "geometry": {
        "type": "Point",
        "coordinates": [
          -73.371413,
          41.118928
        ]
      }
    },
    {
      "type": "Feature",
      "properties": {
        "stop_id": "136",
        "stop_code": null,
        "stop_name": "Green's Farms"
      },
      "geometry": {
        "type": "Point",
        "coordinates": [
          -73.315408,
          41.122265
        ]
      }
    },
    {
      "type": "Feature",
      "properties": {
        "stop_id": "137",
        "stop_code": null,
        "stop_name": "Southport"
      },
      "geometry": {
        "type": "Point",
        "coordinates": [
          -73.28897,
          41.134844
        ]
      }
    },
    {
      "type": "Feature",
      "properties": {
        "stop_id": "138",
        "stop_code": null,
        "stop_name": "Fairfield"
      },
      "geometry": {
        "type": "Point",
        "coordinates": [
          -73.257742,
          41.143077
        ]
      }
    },
    {
      "type": "Feature",
      "properties": {
        "stop_id": "188",
        "stop_code": null,
        "stop_name": "Fairfield Metro"
      },
      "geometry": {
        "type": "Point",
        "coordinates": [
          -73.234336,
          41.161
        ]
      }
    },
    {
      "type": "Feature",
      "properties": {
        "stop_id": "140",
        "stop_code": null,
        "stop_name": "Bridgeport"
      },
      "geometry": {
        "type": "Point",
        "coordinates": [
          -73.187076,
          41.178677
        ]
      }
    },
    {
      "type": "Feature",
      "properties": {
        "stop_id": "143",
        "stop_code": null,
        "stop_name": "Stratford"
      },
      "geometry": {
        "type": "Point",
        "coordinates": [
          -73.131532,
          41.194255
        ]
      }
    },
    {
      "type": "Feature",
      "properties": {
        "stop_id": "167",
        "stop_code": null,
        "stop_name": "Derby"
      },
      "geometry": {
        "type": "Point",
        "coordinates": [
          -73.083548,
          41.319718
        ]
      }
    },
    {
      "type": "Feature",
      "properties": {
        "stop_id": "168",
        "stop_code": null,
        "stop_name": "Ansonia"
      },
      "geometry": {
        "type": "Point",
        "coordinates": [
          -73.078609,
          41.340272
        ]
      }
    },
    {
      "type": "Feature",
      "properties": {
        "stop_id": "169",
        "stop_code": null,
        "stop_name": "Seymour"
      },
      "geometry": {
        "type": "Point",
        "coordinates": [
          -73.072499,
          41.395139
        ]
      }
    },
    {
      "type": "Feature",
      "properties": {
        "stop_id": "170",
        "stop_code": null,
        "stop_name": "Beacon Falls"
      },
      "geometry": {
        "type": "Point",
        "coordinates": [
          -73.06359,
          41.441752
        ]
      }
    },
    {
      "type": "Feature",
      "properties": {
        "stop_id": "171",
        "stop_code": null,
        "stop_name": "Naugatuck"
      },
      "geometry": {
        "type": "Point",
        "coordinates": [
          -73.052655,
          41.494204
        ]
      }
    },
    {
      "type": "Feature",
      "properties": {
        "stop_id": "172",
        "stop_code": null,
        "stop_name": "Waterbury"
      },
      "geometry": {
        "type": "Point",
        "coordinates": [
          -73.046126,
          41.552728
        ]
      }
    },
    {
      "type": "Feature",
      "properties": {
        "stop_id": "145",
        "stop_code": null,
        "stop_name": "Milford"
      },
      "geometry": {
        "type": "Point",
        "coordinates": [
          -73.057647,
          41.223231
        ]
      }
    },
    {
      "type": "Feature",
      "properties": {
        "stop_id": "190",
        "stop_code": null,
        "stop_name": "West Haven"
      },
      "geometry": {
        "type": "Point",
        "coordinates": [
          -72.963488,
          41.27142
        ]
      }
    },
    {
      "type": "Feature",
      "properties": {
        "stop_id": "149",
        "stop_code": null,
        "stop_name": "New Haven"
      },
      "geometry": {
        "type": "Point",
        "coordinates": [
          -72.92829,
          41.296501
        ]
      }
    },
    {
      "type": "Feature",
      "properties": {
        "stop_id": "151",
        "stop_code": null,
        "stop_name": "NH-State St."
      },
      "geometry": {
        "type": "Point",
        "coordinates": [
          -72.921747,
          41.304979
        ]
      }
    },
    {
      "type": "Feature",
      "properties": {
        "stop_id": "502",
        "stop_code": null,
        "stop_name": "Kappock St/Knolls Crescent"
      },
      "geometry": {
        "type": "Point",
        "coordinates": [
          -73.916842,
          40.879135
        ]
      }
    },
    {
      "type": "Feature",
      "properties": {
        "stop_id": "504",
        "stop_code": null,
        "stop_name": "Henry Hudson Pkwy/Independence Ave"
      },
      "geometry": {
        "type": "Point",
        "coordinates": [
          -73.91917,
          40.881049
        ]
      }
    },
    {
      "type": "Feature",
      "properties": {
        "stop_id": "505",
        "stop_code": null,
        "stop_name": "227th St/Henry Hudson Pkwy-East Side"
      },
      "geometry": {
        "type": "Point",
        "coordinates": [
          -73.917936,
          40.881836
        ]
      }
    },
    {
      "type": "Feature",
      "properties": {
        "stop_id": "506",
        "stop_code": null,
        "stop_name": "232nd St/Henry Hudson Pkwy"
      },
      "geometry": {
        "type": "Point",
        "coordinates": [
          -73.914546,
          40.884732
        ]
      }
    },
    {
      "type": "Feature",
      "properties": {
        "stop_id": "507",
        "stop_code": null,
        "stop_name": "235th St/Henry Hudson Pkwy-East Side"
      },
      "geometry": {
        "type": "Point",
        "coordinates": [
          -73.9124,
          40.886127
        ]
      }
    },
    {
      "type": "Feature",
      "properties": {
        "stop_id": "508",
        "stop_code": null,
        "stop_name": "236th St/Henry Hudson Pkwy"
      },
      "geometry": {
        "type": "Point",
        "coordinates": [
          -73.911842,
          40.887011
        ]
      }
    },
    {
      "type": "Feature",
      "properties": {
        "stop_id": "510",
        "stop_code": null,
        "stop_name": "239th St/Independence Ave."
      },
      "geometry": {
        "type": "Point",
        "coordinates": [
          -73.912894,
          40.889769
        ]
      }
    },
    {
      "type": "Feature",
      "properties": {
        "stop_id": "512",
        "stop_code": null,
        "stop_name": "230th St/Riverdale Ave"
      },
      "geometry": {
        "type": "Point",
        "coordinates": [
          -73.910544,
          40.880465
        ]
      }
    },
    {
      "type": "Feature",
      "properties": {
        "stop_id": "514",
        "stop_code": null,
        "stop_name": "236th St/Riverdale Ave"
      },
      "geometry": {
        "type": "Point",
        "coordinates": [
          -73.906993,
          40.885908
        ]
      }
    },
    {
      "type": "Feature",
      "properties": {
        "stop_id": "516",
        "stop_code": null,
        "stop_name": "239th St/Henry Hudson Pkwy"
      },
      "geometry": {
        "type": "Point",
        "coordinates": [
          -73.908377,
          40.889136
        ]
      }
    },
    {
      "type": "Feature",
      "properties": {
        "stop_id": "518",
        "stop_code": null,
        "stop_name": "246th St/Henry Hudson Pkwy"
      },
      "geometry": {
        "type": "Point",
        "coordinates": [
          -73.907969,
          40.893613
        ]
      }
    },
    {
      "type": "Feature",
      "properties": {
        "stop_id": "602",
        "stop_code": null,
        "stop_name": "254th St/Riverdale Ave"
      },
      "geometry": {
        "type": "Point",
        "coordinates": [
          -73.906134,
          40.901731
        ]
      }
    },
    {
      "type": "Feature",
      "properties": {
        "stop_id": "604",
        "stop_code": null,
        "stop_name": "256th St/Riverdale Ave"
      },
      "geometry": {
        "type": "Point",
        "coordinates": [
          -73.905008,
          40.904156
        ]
      }
    },
    {
      "type": "Feature",
      "properties": {
        "stop_id": "606",
        "stop_code": null,
        "stop_name": "259th St/Arlington Ave"
      },
      "geometry": {
        "type": "Point",
        "coordinates": [
          -73.906735,
          40.90645
        ]
      }
    },
    {
      "type": "Feature",
      "properties": {
        "stop_id": "608",
        "stop_code": null,
        "stop_name": "259th St/Riverdale Ave"
      },
      "geometry": {
        "type": "Point",
        "coordinates": [
          -73.904096,
          40.90688
        ]
      }
    },
    {
      "type": "Feature",
      "properties": {
        "stop_id": "610",
        "stop_code": null,
        "stop_name": "Mosholu Ave/Fieldston Rd"
      },
      "geometry": {
        "type": "Point",
        "coordinates": [
          -73.900716,
          40.905485
        ]
      }
    },
    {
      "type": "Feature",
      "properties": {
        "stop_id": "612",
        "stop_code": null,
        "stop_name": "David Sheridan Plaza"
      },
      "geometry": {
        "type": "Point",
        "coordinates": [
          -73.896435,
          40.905112
        ]
      }
    },
    {
      "type": "Feature",
      "properties": {
        "stop_id": "614",
        "stop_code": null,
        "stop_name": "260th St/Broadway"
      },
      "geometry": {
        "type": "Point",
        "coordinates": [
          -73.896543,
          40.907521
        ]
      }
    },
    {
      "type": "Feature",
      "properties": {
        "stop_id": "616",
        "stop_code": null,
        "stop_name": "262nd St/Broadway"
      },
      "geometry": {
        "type": "Point",
        "coordinates": [
          -73.896629,
          40.910221
        ]
      }
    },
    {
      "type": "Feature",
      "properties": {
        "stop_id": "618",
        "stop_code": null,
        "stop_name": "261st St/Riverdale Ave"
      },
      "geometry": {
        "type": "Point",
        "coordinates": [
          -73.903216,
          40.910148
        ]
      }
    },
    {
      "type": "Feature",
      "properties": {
        "stop_id": "620",
        "stop_code": null,
        "stop_name": "263rd St/Riverdale Ave"
      },
      "geometry": {
        "type": "Point",
        "coordinates": [
          -73.902583,
          40.912483
        ]
      }
    },
    {
      "type": "Feature",
      "properties": {
        "stop_id": "40702",
        "stop_code": null,
        "stop_name": "Branford (SLE)"
      },
      "geometry": {
        "type": "Point",
        "coordinates": [
          -72.817265,
          41.274589
        ]
      }
    },
    {
      "type": "Feature",
      "properties": {
        "stop_id": "40704",
        "stop_code": null,
        "stop_name": "Guilford (SLE)"
      },
      "geometry": {
        "type": "Point",
        "coordinates": [
          -72.673638,
          41.275839
        ]
      }
    },
    {
      "type": "Feature",
      "properties": {
        "stop_id": "40706",
        "stop_code": null,
        "stop_name": "Madison (SLE)"
      },
      "geometry": {
        "type": "Point",
        "coordinates": [
          -72.599545,
          41.283676
        ]
      }
    },
    {
      "type": "Feature",
      "properties": {
        "stop_id": "40708",
        "stop_code": null,
        "stop_name": "Clinton (SLE)"
      },
      "geometry": {
        "type": "Point",
        "coordinates": [
          -72.528305,
          41.2795
        ]
      }
    },
    {
      "type": "Feature",
      "properties": {
        "stop_id": "40710",
        "stop_code": null,
        "stop_name": "Westbrook (SLE)"
      },
      "geometry": {
        "type": "Point",
        "coordinates": [
          -72.44845,
          41.288787
        ]
      }
    },
    {
      "type": "Feature",
      "properties": {
        "stop_id": "40712",
        "stop_code": null,
        "stop_name": "Old Saybrook (SLE)"
      },
      "geometry": {
        "type": "Point",
        "coordinates": [
          -72.376792,
          41.300395
        ]
      }
    },
    {
      "type": "Feature",
      "properties": {
        "stop_id": "40714",
        "stop_code": null,
        "stop_name": "New London (SLE)"
      },
      "geometry": {
        "type": "Point",
        "coordinates": [
          -72.093229,
          41.354222
        ]
      }
    }
  ]
}